name,lat,lng,vert,viewcount2020,viewcount2019,viewcount2018,viewcount2017,viewcount2016,viewcount2015
Mohawk Mountain Ski Area,41.83675,-73.31342,650,3081,8594,7134,6528,9250,7258
Mount Southington,41.58235,-72.92587,425,1174,2973,3646,2689,2784,2923
Powder Ridge Ski Area,41.502006,-72.737172,550,1343,4028,4819,4257,4039,4329
Ski Sundown,41.88407,-72.94523,625,1317,3787,5451,5018,4306,4156
Baker Mountain (ski area),45.08472,-69.90556,227,1160,2097,2138,1992,1658,1705
Big Rock (ski resort),46.52222,-67.82778,920,1381,3392,3750,2660,2660,2536
Big Squaw Mountain Resort,45.50417,-69.70556,1620,342,627,508,427,467,347
Black Mountain of Maine,44.58000,-70.61750,1380,1480,3578,3430,3155,3809,5292
Camden Snow Bowl,44.217216,-69.134667,845,1140,2455,3293,2983,2652,2614
Eaton Mountain,44.76806,-69.61944,620,716,1583,2029,1683,1871,1354
Hermon Mountain (ski area),null,null,null,null,null,null,null,null,null
Lonesome Pine Trails,47.23278,-68.59306,null,881,1103,983,908,970,1173
Lost Valley Ski Area,44.136,-70.281,240,1270,2878,3501,2881,2598,2093
Ski Mount Abram,44.37917,-70.70694,null,251,461,377,313,241,239
Mount Jefferson Ski Area,null,null,null,null,null,null,null,null,null
Powderhouse Hill (ski area),43.23694,-70.80222,120,606,1369,1555,1287,1295,1442
Quoggy Jo,null,null,null,null,null,null,null,null,null
Saddleback Maine (ski resort),44.93667,-70.50306,2000,3080,4855,6429,6868,10233,11261
Shawnee Peak Ski Area,44.05833,-70.81528,1300,1889,4266,4722,3687,4091,5404
Sugarloaf (ski resort),45.03139,-70.31306,2820,12147,28630,31360,29793,30026,31438
Sunday River (ski resort),44.46944,-70.86111,2340,942,1730,1608,1250,1317,1113
Titcomb Mountain,44.65000,-70.17083,350,779,1703,1699,1847,1772,1750
Berkshire East Ski Resort,42.62083,-72.87694,1180,1758,4613,6375,5987,6219,7261
Blandford Ski Area,42.18885139,-72.90076806,465,1691,3044,3716,3525,2878,7790
Blue Hills Ski Area,42.21528,-71.11917,309,1491,3682,4732,7319,6482,3710
Bousquet Mountain,null,null,750,1065,3150,3496,5235,3256,3807
Ski Butternut,42.17806,-73.31694,980,2715,8376,10937,20113,19044,14499
Easton Ski Area,42.5387,-72.5938,null,510,1374,1793,1296,1212,1326
Jiminy Peak (ski area),42.55083,-73.29083,1130,3545,7476,9877,7492,8409,7611
Mount Greylock Ski Club,null,null,null,null,null,null,null,null,null
Nashoba Valley Ski Area,42.5419750,-71.4441028,228,1773,4495,5297,6413,6088,5862
Otis Ridge,42.1964,-73.0988,465,null,null,null,null,80,965
Ski Bradford,42.74361,-71.05889,null,983,2948,3389,5896,9510,6056
Ski Ward,42.30556,-71.67500,220,1048,2675,3180,2467,2174,2277
Wachusett Mountain (ski area),42.49944,-71.88639,1006,3170,9750,10411,9997,10318,8834
Arrowhead Recreation Area,43.36278,-72.33333,null,746,2007,1676,1380,1203,1575
Attitash Mountain Resort,44.08222,-71.22972,1750,null,4235,8324,9048,11011,11753
Black Mountain Ski Area (New Hampshire),44.16833,-71.16444,1100,1127,2546,2832,2537,2984,3001
Bretton Woods Mountain Resort,44.25972,-71.46222,1500,3178,6269,6770,6464,7035,7762
Cannon Mountain Ski Area,44.15778,-71.69889,2330,4363,11342,11651,11186,9201,10932
Cranmore Mountain Resort,44.05639,-71.11000,1200,2868,6433,6500,5943,6161,6703
Crotched Mountain,42.998294108,-71.873712297,null,2105,5874,7303,9632,13188,10984
Dartmouth Skiway,43.78694,-72.10083,968,2453,5707,5870,13645,7403,6975
Granite Gorge Ski Area,42.97083,-72.21222,390,977,2115,3132,2595,2024,2537
Gunstock Mountain Resort,43.54139,-71.36750,1400,2204,7932,14247,30082,37593,22202
King Pine,43.87139,-71.08944,350,1108,2991,4430,4143,4285,5273
Loon Mountain,44.03597,-71.62144,null,7075,19521,18724,31492,32327,19249
McIntyre Ski Area,43.00500,-71.44000,180,1670,3810,4130,3591,4263,4518
Mount Prospect Ski Tow,null,null,null,null,null,null,null,null,null
Mount Sunapee Resort,43.33056,-72.08000,1513,2259,5613,5897,6640,6463,6923
Pats Peak,43.16333,-71.79583,770,1537,4243,5409,5013,4909,4708
Ragged Mountain Resort,43.48444,-71.84222,1250,1637,3542,4527,5205,5177,5287
Tenney Mountain Ski Resort,43.73778,-71.78361,1400,1515,1238,1014,1041,1002,822
The Balsams Grand Resort Hotel,44.87056,-71.30778,null,9627,39343,16703,17160,20386,52704
Waterville Valley Resort,43.96528,-71.52778,2020,3339,9777,9762,8513,8385,10102
Whaleback (ski area),43.60139,-72.18139,700,1336,3142,3453,3017,2915,3112
Wildcat Mountain Ski Area,44.26306,-71.23833,2112,2525,5563,7528,8918,8643,10079
Yawgoo Valley,41.51694,-71.52944,240,1654,3999,4026,3679,3638,3340
"Brownsville, Vermont",43.46861,-72.47083,null,2018,4146,4441,4360,4368,4429
Bolton Valley,44.41583,-72.86972,1704,313,594,453,506,377,313
Bromley Mountain,43.22778,-72.93861,1307,5100,10933,10303,14211,17214,13196
Burke Mountain (Vermont),44.57083,-71.89317,null,3330,9229,7218,9045,7677,7384
Skiing Cochrans,44.396,-72.982,null,1556,4011,4453,12826,5640,8953
Jay Peak Resort,44.92944,-72.53222,2015,9398,22892,22197,21370,22793,19946
Killington Ski Resort,43.626,-72.798,3050,19749,52870,55386,61611,57732,40512
Mad River Glen,44.20083,-72.92444,2037,6917,16690,17256,16547,15307,14674
Magic Mountain Ski Area,43.19278,-72.76000,1500,462,851,694,614,640,722
Middlebury College Snow Bowl,43.93917,-72.95750,1000,2132,4473,4958,5010,4952,4781
Mount Snow,42.959835,-72.922161,1700,11045,23335,30595,38866,43733,32311
Northeast Slopes,44.07250,-72.25028,340,null,null,null,429,542,575
Okemo Mountain,43.40139,-72.71667,2210,9354,23222,24186,36553,24482,22238
Pico Mountain,43.66167,-72.84250,1967,2575,6253,6934,6754,6397,5638
"Plymouth Notch, Vermont",43.5299,-72.7388,null,1056,2186,1819,1406,1534,1680
Quechee Ski Area,43.6572,-72.4431,null,null,null,737,642,570,588
Smugglers' Notch Resort,44.57278,-72.77611,2610,10692,22439,15233,6030,5637,5197
Stowe Mountain Resort,44.53194,-72.78750,2160,9681,22056,29179,25420,29393,22890
Stratton Mountain Resort,43.11417,-72.90667,2003,4929,12584,14775,15375,16252,13950
Sugarbush Resort,44.13722,-72.90667,2600,7495,17455,21551,21994,21957,20574
Suicide Six,43.66389,-72.54444,650,3727,8398,8773,9687,8682,8003
Wisp Ski Resort,39.55806,-79.36306,700,6412,15625,15396,26395,29157,17038
Big Snow American Dream,40.81111,-74.07000,null,null,null,null,null,7861,41026
Campgaw Mountain,41.0542633,-74.1993123,null,2639,5797,5798,5135,4796,5120
Hidden Valley (New Jersey),41.1856000,-74.4806000,620,2354,5603,5248,4539,3899,4476
Mountain Creek,41.181,-74.513,317,10255,25064,29962,31070,26094,38866
Beartown Ski Area,null,null,null,null,null,null,null,null,null
Belleayre Mountain,42.1422139,74.510778,1404,2391,5573,6886,7459,8985,9937
Big Tupper Ski Area,null,null,null,null,null,null,null,null,null
Brantling Ski Slopes,null,null,null,null,null,null,null,null,null
Bristol Mountain Ski Resort,42.745,-77.404444,1150,3678,7930,8718,7945,7631,8819
Buffalo Ski Club,null,null,null,null,null,null,null,null,null
Catamount Ski Area,42.171457,-73.477764,1000,2033,4636,7327,6704,5912,7256
Dry Hill Ski Area,null,null,null,null,null,null,null,null,null
Gore Mountain (ski resort),43.67222,-74.00694,2602,4162,9701,13111,12346,13017,14464
Greek Peak Mountain Resort,42.50500,-76.14722,1052,521,1016,979,1160,852,582
Hickory Ski Center,null,null,null,null,null,null,null,null,null
Holiday Valley (ski resort),42.26250,-78.66806,750,4952,10807,10826,10753,11258,11440
Holiday Mountain Ski & Fun,null,null,null,null,null,null,null,null,null
Holimont,null,null,null,null,null,null,null,null,null
Hunter Mountain (ski area),42.200278,-74.230278,1600,6521,16493,21737,22341,16746,15134
Kissing Bridge,null,null,null,null,null,null,null,null,null
Labrador Mountain,null,null,null,null,null,null,null,null,null
Mount Peter Ski Area,null,null,null,null,null,null,null,null,null
McCauley Mountain (New York),43.6925676,-74.9612837,null,777,1361,1353,1538,1632,1981
"Oak Mountain (Hamilton County, New York)",null,null,null,null,null,null,null,null,null
Peek'n Peak,42.06250,-79.73667,400,1733,3875,5218,4842,4637,4892
Plattekill Mountain,42.290251,-74.653678,1100,232,1935,3321,3610,3716,3544
Royal Mountain,null,null,null,null,null,null,null,null,null
Song Mountain Resort,null,null,null,null,null,null,null,null,null
Snow Ridge Ski Resort,null,null,null,null,null,null,null,null,null
Swain (Ski Area),null,null,null,null,null,null,null,null,null
Sugar Hill (Ski Area),null,null,null,null,null,null,null,null,null
Thunder Ridge Ski Area,41.50722,-73.58111,403,1310,3953,7017,7200,5467,5102
Titus Mountain,44.76333,-74.23528,null,1302,3187,3995,4577,4305,3273
Toggenburg Mountain,null,null,null,null,null,null,null,null,null
West Mountain (ski area),43.28556,-73.72833,1010,1184,2992,3958,2859,3009,3690
Willard Mountain,null,null,null,null,null,null,null,null,null
Whiteface Mountain,44.36583,-73.90278,3166,32089,71361,63810,68230,72645,58772
Windham Mountain,42.29167,-74.25944,1600,4057,7756,9024,8507,7965,8991
Woods Valley Ski Resort,null,null,null,null,null,null,null,null,null
Bear Creek Ski and Recreation Area,40.47611,-75.62583,510,2699,6442,6723,6680,8664,5792
Blue Knob All Seasons Resort,null,null,null,null,null,null,null,null,null
Blue Mountain Resort,40.82222,-75.51333,1082,5547,12699,13260,11500,2853,2663
Boyce Park,40.46556,-79.74528,null,2135,4851,5126,4450,4987,2979
Camelback Mountain Resort,41.05139,-75.35528,800,1860,3794,4014,3083,2592,2530
Eagle Rock Resort,null,null,null,null,null,null,null,null,null
Elk Mountain Ski Area,41.721,-75.559,925,3228,8143,8898,8841,7856,7555
Hidden Valley Resort (Pennsylvania),40.058042,-79.258277,470,437,1034,671,610,667,1031
Jack Frost Ski Resort,41.111,-75.652,null,2138,5711,7041,7630,8980,8230
Laurel Mountain Ski Resort,null,null,800,2178,6935,5351,4349,5403,5044
Liberty Mountain Resort,39.763500,-77.37500,620,3581,12631,14306,16862,18741,12614
Mount Pleasant of Edinboro,41.85222,-80.07389,350,538,1011,466,402,469,753
Seven Springs Mountain Resort,40.02306,-79.29278,754,10910,24842,28844,32781,35751,31834
Shawnee Mountain Ski Area,41.04083,-75.08333,700,2033,5498,6395,12782,17518,11543
Ski Big Bear,41.52333,-75.02500,null,966,2560,3329,3320,3189,2612
Ski Denton,null,null,null,null,null,null,null,null,null
Roundtop Mountain Resort,40.108,-76.926,580,null,1181,1071,1079,1133,904
Spring Mountain District AVA,null,null,null,235,538,844,1247,1704,1240
Ski Sawmill,null,null,null,null,null,null,null,null,null
Montage Mountain Ski Resort,41.3533,-75.6592,1000,3364,8876,9983,10058,10196,9226
Tussey Mountain Ski Area,40.7682,-77.7520,500,908,2246,3027,3012,2580,2047
Whitetail Ski Resort,39.74167,-77.93278,935,2890,10295,13604,19086,19928,19522
Cloudmont Ski & Golf Resort,null,null,null,null,null,null,null,null,null
Appalachian Ski Mountain,36.174,-81.662,365,2534,5619,5100,4561,4609,5140
Cataloochee Ski Area,35.563,-83.090,740,1985,5632,5214,5453,4644,4812
Sapphire Valley,null,null,null,null,null,null,null,null,null
Ski Beech,null,null,null,null,null,null,null,null,null
Sugar Mountain (ski area),null,null,null,null,null,null,null,null,null
Wolf Ridge Ski Resort,35.955,-82.509,700,664,1184,880,727,890,905
Ober Gatlinburg,35.70306,-83.55778,600,9661,27126,20390,19757,18596,15392
Mount Aggie Ski Slope,null,null,null,null,null,null,null,null,null
Bryce Resort,38.81750,-78.76583,500,null,1522,3050,3870,3414,4059
Massanutten Mountain,38.643028,-78.612028,null,9906,18689,18284,17147,16647,18304
The Omni Homestead Resort,37.9954722,-79.8296444,null,4516,8597,8048,6559,5843,5594
Wintergreen Resort,37.93000,-78.94167,1003,7130,16261,23303,25770,15042,15067
Canaan Valley Resort State Park,39.02361,-79.46583,850,3433,8461,12909,12610,11895,10713
Oglebay Resort and conference Center,null,null,null,null,null,null,null,null,null
Snowshoe Mountain,38.40889,-79.99472,1500,11710,26183,29970,30353,31986,31665
Timberline Four Seasons Resort,null,null,null,null,null,null,null,null,null
Winterplace Ski Resort,37.59000,-81.11500,603,388,864,682,693,623,483
Chestnut Mountain,null,null,420,3476,8560,5720,5618,4814,5248
Ski Four Lakes,null,null,null,null,null,null,null,null,null
Raging Buffalo Snowboard Park,null,null,null,null,null,null,null,null,null
Ski Snowstar,41.4250,-90.7438,null,891,1810,2347,2305,1852,1891
Villa Olivia,null,null,null,null,null,null,null,null,null
Paoli Peaks,38.55778,-86.51028,300,1873,5573,5858,5816,6404,6392
Perfect North Slopes,39.149208,-84.886581,400,2805,9301,11192,14399,11736,9946
Mt. Crescent Ski Area,null,null,null,null,null,null,null,null,null
Seven Oaks Snow Ski Area,null,null,null,null,null,null,null,null,null
Sleepy Hollow Sports Park,null,null,null,null,null,null,null,null,null
Sundown Mountain,null,null,null,null,null,null,null,null,null
Al Quaal Recreation Ski Area,null,null,null,null,null,null,null,null,null
Alpine Valley (ski area),null,null,null,null,null,null,null,null,null
Apple Mountain Ski Resort,null,null,null,null,null,null,null,null,null
Big Powderhorn Mountain,46.50417,-90.09611,null,2417,4701,4716,5113,6726,5347
Bittersweet Ski Resort,null,null,null,null,null,null,null,null,null
"Blackjack Ski Resort (Bessemer, Michigan)",46.5021,-90.0046,490,875,2260,2699,2683,2944,2752
Boyne Highlands,45.47083,-84.93472,552,1700,4568,7364,8459,4154,4095
Boyne Mountain Resort,45.16389,-84.93278,500,1799,3043,2574,2681,2259,1926
Caberfae Peaks Ski & Golf Resort,44.24972,-85.72500,485,956,3085,3433,3860,3595,3458
Cannonsburg Ski Area,null,null,null,null,null,null,null,null,null
Challenge Mountain,null,null,null,null,null,null,null,null,null
Crystal Mountain (Michigan),44.52000,-85.99222,375,3561,7727,7244,7131,8309,7512
Garland Resort,null,null,null,null,null,null,null,null,null
Hickory Hills Ski Area,null,null,null,null,null,null,null,null,null
The Homestead (resort),null,null,null,null,null,null,null,null,null
Indianhead Mountain,46.50000,-89.97083,520,1458,3175,4140,6004,7134,5946
Marquette Mountain,46.508,-87.42,457,2308,4677,4856,4464,4744,4578
Mont Ripley,47.12917,-88.55944,null,1646,3689,3941,4097,4694,3699
Mount Bohemia,47.39167,-88.01361,900,4578,9173,7668,10894,17805,19841
Mount Brighton,42.53806,-83.80694,null,495,874,817,737,621,517
Mt. Holiday,null,null,null,null,null,null,null,null,null
Mt. Holly Ski and Snowboard Resort,null,null,null,null,null,null,null,null,null
Mt. McSauba Recreation Area,null,null,null,null,null,null,null,null,null
Mt. Zion Ski Area,null,null,null,null,null,null,null,null,null
Mulligan's Hollow Ski Bowl,43.0564,-86.2393,null,434,1045,1068,1066,1252,1148
Norway Mountain Ski and Snowboard Resort,null,null,null,null,null,null,null,null,null
Nub's Nob,45.47,-84.903,427,1380,3179,3475,4001,4186,4087
Otsego Club & Resort,null,null,null,null,null,null,null,null,null
Petoskey Winter Sports Park,null,null,null,null,null,null,null,null,null
Pine Knob,42.7422524,-83.3671629,null,3505,7494,8101,8912,10428,10806
Pine Mountain Resort,null,null,null,null,null,null,null,null,null
Porcupine Mountains,46.78111,-89.68083,null,19176,43147,45144,46872,51098,70341
Shanty Creek Resorts,null,null,null,null,null,null,null,null,null
Ski Brule,46.028,-88.701,null,1324,3300,3868,6457,3233,2033
Snow Snake Ski & Golf,null,null,null,null,null,null,null,null,null
Swiss Valley Ski and Snowboard Area,null,null,null,null,null,null,null,null,null
Timber Ridge Ski Area,42.391711,-85.779052,null,1564,5229,6174,6149,6376,4903
Treetops Resort,null,null,null,null,null,null,null,null,null
Afton Alps,44.85556,-92.78917,350,4768,10343,11789,16342,13137,7822
Andes Tower Hills,null,null,null,null,null,null,null,null,null
Buck Hill,44.724,-93.283,null,3920,9028,8883,15696,10599,8710
Buena Vista Ski Area,47.65806,-94.87917,null,null,1,null,510,800,797
Chester Bowl Park,null,null,null,null,null,null,null,null,null
Coffee Mill Ski Area,null,null,null,null,null,null,null,null,null
Detroit Mountain,null,null,null,null,null,null,null,null,null
Giants Ridge,null,null,500,null,null,null,null,null,1593
Hyland Hills Ski Area,44.844,-93.364,null,1234,3216,4553,1570,762,615
Lutsen Mountains,47.664,-90.714,825,5277,12463,13879,14202,13251,13685
Mount Itasca,null,null,null,null,null,null,null,null,null
Mount Kato,44.13139,-94.03639,240,877,2105,2528,2362,2193,2337
Powder Ridge,null,null,null,null,null,null,null,null,null
Ski Gull,null,null,null,null,null,null,null,null,null
Spirit Mountain (ski area),46.71944,-92.21806,678,2613,5911,6762,6914,6813,6387
Welch Village,44.56056,-92.72722,360,1032,2358,2762,2895,1995,2081
Wild Mountain,45.48889,-92.70556,null,1156,2366,2714,4513,3708,3450
Hidden Valley Ski Area,38.535578,-90.65287,320,2838,9565,10593,10144,12008,9194
Snow Creek (ski resort),39.468651,-94.971964,300,null,2012,4156,4648,4909,4577
Bottineau Winter Park,48.951,-100.473,180,1069,2475,2386,2276,2180,2154
Frost Fire Park,48.912,-98.068,330,827,1770,1547,2080,714,585
Huff Hills,46.62694,-100.72333,null,867,1729,1997,2065,2019,1484
Alpine Valley Ski Area,41.5303,-81.2662,240,1120,2959,3158,3976,4087,4378
Boston Mills/Brandywine Ski Resort,41.28389,-81.55556,240,null,null,null,null,null,null
Mad River Mountain,40.3163167,-83.6805639,300,3645,7088,8429,9183,10074,10974
Snow Trails Ski Resort,null,null,null,null,null,null,null,null,null
Big Creek Ski Area,null,null,null,null,null,null,null,null,null
Mystic Miner Ski Resort,44.3084333,-103.8184417,699,1762,3566,3229,2779,3914,3225
Great Bear Recreation Park,43.5821000,-96.6649667,178,1490,3189,3070,2939,2722,3454
Terry Peak,44.329,-103.835,1164,3066,6016,6279,5492,6250,7100
Alpine Valley Resort (Wisconsin),42.736,-88.428,null,3001,6241,6178,9370,9593,9004
Ausblick Ski Club,null,null,null,null,null,null,null,null,null
Badlands Sno-Park,null,null,null,null,null,null,null,null,null
Book Across the Bay,null,null,null,654,1749,1614,1522,1960,1228
Blackhawk Ski Club,null,null,null,null,null,null,null,null,null
Bruce Mound Winter Sports Area,null,null,null,null,null,null,null,null,null
Camp 10,null,null,null,null,null,null,null,null,null
Cascade Mountain (ski area),43.5039278,-89.5180167,450,2047,5636,5286,5946,5975,5079
Christie Mountain,null,null,null,null,null,null,null,null,null
Christmas Mountain Village,null,null,null,null,null,null,null,null,null
Crystal Ridge,null,null,null,null,null,null,null,null,null
Devil's Head Resort,43.42306,-89.62694,500,280,502,425,390,350,273
Fox Hill Ski Area,null,null,null,null,null,null,null,null,null
Granite Peak Ski Area,44.92861,-89.68250,700,2656,5819,6630,9437,9437,8726
Heiliger Huegel Ski Club,null,null,null,null,null,null,null,null,null
Kettlebowl,45.271323000,-88.901978833,null,681,1656,1555,1301,1192,1210
Kewaunee County Winter Park Ski Hill,null,null,null,null,null,null,null,null,null
Keyes Peak,null,null,null,null,null,null,null,null,null
Little Switzerland Ski Area,null,null,null,null,null,null,null,null,null
Mont Du Lac,null,null,null,null,null,null,null,null,null
The Mountain Top at Grand Geneva Resort,null,null,null,null,null,null,null,null,null
Mt. Ashwabay,null,null,null,null,null,null,null,null,null
Mt. LaCrosse,null,null,null,null,null,null,null,null,null
Navarino Slopes,null,null,null,null,null,null,null,null,null
Nordic Mountain,null,null,null,null,null,null,null,null,null
Nutt Hill,null,null,null,null,null,null,null,null,null
Powers Bluff,null,null,null,1021,2225,2666,2040,2081,2577
Standing Rocks,null,null,null,null,null,null,null,null,null
Sunburst Ski Area,null,null,null,null,null,null,null,null,null
Telemark Lodge,46.190056,-91.247639,null,3461,7832,11299,6634,10139,17141
Triangle Sports Area,null,null,null,null,null,null,null,null,null
Trollhaugen,45.35125,-92.61801,null,1266,2742,3884,5966,5170,3321
Tyrol Basin,43.042747,-89.77772,260,926,2209,2246,2972,2565,2485
Whitecap Mountains,null,null,null,null,null,null,null,null,null
Whitetail Ridge,null,null,null,null,null,null,null,null,null
Wilmot Mountain,42.50000,-88.18889,190,1910,12006,10256,10761,8509,8042
Arizona Snowbowl,35.330,-111.705,2300,12900,25486,27950,25997,32350,27114
Elk Ridge Ski Area,35.21056,-112.19250,650,1440,2118,2190,2317,2381,2370
Mount Lemmon Ski Valley,32.45222,-110.78389,957,5233,11488,11467,11741,12783,11079
Sunrise Park Resort,33.97333,-109.56472,1900,6043,10965,11016,9599,12242,12661
Arapahoe Basin,39.64167,-105.87167,2270,13831,30990,34743,33896,37369,27373
Aspen/Snowmass,null,null,null,null,null,null,null,null,null
Aspen Highlands,39.18111,-106.85639,4352,7475,17769,16880,16062,16279,13844
Aspen Mountain (ski area),39.18639,-106.81861,null,16605,35321,36182,31655,32199,25959
Buttermilk (ski area),39.20500,-106.86056,2030,5723,12111,12552,12795,12582,11400
Snowmass (ski area),39.1956,-106.9513,4406,10984,24233,22990,22764,22899,18639
Beaver Creek Resort,39.63139,-106.52167,3340,19173,34683,34124,31872,31028,25201
Breckenridge Ski Resort,39.480,-106.067,null,24988,56925,60147,50345,49803,37999
Chapman Hill Ski Area,null,null,null,null,null,null,null,null,null
Copper Mountain (Colorado),39.50167,-106.15639,null,21257,47529,48582,43734,44148,36168
Cranor Ski Area,null,null,null,null,null,null,null,null,null
Crested Butte Mountain Resort,38.89972,-106.96500,3055,8512,17410,17494,17044,17420,15200
Echo Mountain Resort,39.68500,-105.51944,600,null,824,4685,4850,3888,3139
Eldora Mountain Resort,39.93750,-105.58361,1240,5633,12240,16255,21162,27057,16535
Hesperus Ski Area,37.29778,-108.05500,688,1794,3912,3759,2999,2797,2713
Howelsen Hill Ski Area,40.483,-106.839,null,2190,5138,5766,6922,7309,7744
Kendall Mountain Ski Area,37.81135,-107.65652,null,743,1515,1683,1720,2316,2368
Keystone Resort,39.60500,-105.95417,3128,14363,29997,32246,30021,28805,24721
Lake City Ski Hill,null,null,null,null,null,null,null,null,null
Loveland Ski Area,39.680,-105.897,2210,8972,16439,17556,17522,18755,14316
Loveland Valley,null,null,null,null,null,null,null,null,null
Monarch Ski Area,38.51250,-106.33250,1170,4506,10162,11462,11335,11492,9879
Otter Mountain ski resort,null,null,null,null,null,null,null,null,null
Powderhorn Resort,39.06306,-108.15556,1650,3378,6778,6255,6251,6780,6288
Purgatory Resort,37.62972,-107.81444,2029,null,10024,16547,16742,18409,16010
Silverton Mountain,37.88470,-107.66529,3087,5309,11216,11125,15521,11469,12013
Ski Cooper,39.360,-106.302,1200,2822,6414,7007,6789,8068,7809
Ski Granby Ranch,null,null,null,null,null,null,null,null,null
Steamboat Ski Resort,40.459,-106.803,3668,13425,28066,26915,27118,28364,21615
Sunlight Ski Area,39.399806,-107.339278,2010,2143,5042,5026,4659,4540,4926
Telluride Ski Resort,37.93639,-107.82028,4425,12944,26273,26932,27870,30792,24847
Vail Ski Resort,39.639,-106.374,3450,28329,57609,59969,58381,54706,49864
Winter Park Resort,39.88694,-105.76250,3060,16528,35923,32452,30135,30737,22739
Wolf Creek ski area,37.47222,-106.79333,1604,7855,13185,10695,10740,12776,14877
Bald Mountain Ski Area,46.57,-115.87,684,1102,2324,2246,2138,2134,1962
Bogus Basin,43.764,-116.104,1792,8392,15868,16303,16478,17243,17044
Brundage Mountain,45.005,-116.155,1800,3730,6991,6264,6329,6103,6936
Cottonwood Butte,46.0755,-116.4528,1009,849,2046,2007,1554,1507,1433
Kelly Canyon,43.64583,-111.63000,1000,1205,2186,2147,1933,2024,2045
Little Ski Hill,44.93000,-116.16306,405,783,1857,1675,1563,1624,1655
Lookout Pass Ski and Recreation Area,47.453,-115.707,1150,3136,6535,7126,7133,7253,7775
Lost Trail Powder Mountain,45.692,-113.952,1800,2825,5217,5211,5900,6152,5859
Magic Mountain Resort,42.188306,-114.286111,700,1010,2172,2570,2293,2873,2612
"Pebble Creek, Idaho",42.778,-112.160,2911,1538,6337,13999,8111,7081,6975
"Sandpoint, Idaho",48.267,-116.567,null,57897,118555,114528,106156,110629,121569
Pomerelle,42.318,-113.608,1002,1230,2821,3393,2970,2806,2977
Rotarun Ski Area,43.497500,-114.366000,475,1256,2118,2754,1824,1859,1494
Schweitzer Mountain,48.367,-116.623,2440,9664,18957,19139,19174,18000,19006
Silver Mountain (Idaho),47.495,-116.135,2197,5408,11221,10418,9908,10196,13793
Snowhaven,45.869000,-116.09000,400,777,1830,2186,1595,1672,1657
Soldier Mountain,43.485,-114.830,1425,6402,3475,3361,3054,3885,3716
Bald Mountain (Idaho),43.65500,-114.40917,3400,7082,15042,13998,13183,14773,13457
Tamarack Resort,44.671,-116.123,2760,7890,16814,16939,16818,15421,16680
"Havre, Montana",48.550,-109.683,null,28290,53029,55510,61005,55199,62469
Big Sky Resort,45.25000,-111.41667,4366,20245,40873,41090,49346,59860,59339
Blacktail Mountain Ski Area,48.01306,-114.24694,1553,2648,5071,4259,5034,5232,4250
Bridger Bowl Ski Area,45.818,-110.897,2600,5718,10676,9810,9374,9177,9296
Discovery Ski Area,46.25639,-113.24194,1678,1468,2950,3015,3157,2903,2959
Great Divide Montana,46.7497,-112.3043,1503,1457,2512,3356,3169,2926,2768
Lost Trail Powder Mountain,45.692,-113.952,1800,2825,5217,5211,5900,6152,5859
Maverick Mountain Ski Area,45.43500,-113.12944,1750,1639,3206,3168,2632,2650,3151
Montana Snowbowl,47.02,-114.0,2600,3002,6818,7023,8722,6006,5188
Moonlight Basin,45.31417,-111.45083,4166,4811,10542,11364,11403,10147,9867
Red Lodge Mountain,45.191,-109.335,2400,1836,3723,4427,4501,5039,5009
Showdown Ski Area,46.83861,-110.70889,1400,1584,3562,3190,3468,3046,3225
Teton Pass Ski Area,47.92806,-112.81528,1010,1514,2847,3257,3244,3769,3565
Turner Mountain Ski Resort,48.605,-115.63,2110,1370,2574,2628,2276,2729,2547
Whitefish Mountain Resort,48.50,-114.34,2353,10309,20238,22807,27685,27088,22873
Yellowstone Club,45.2313833,-111.4512556,null,22964,59466,58145,60339,57858,73012
Angel Fire Resort,36.38750,-105.27333,2077,3240,7593,8302,7885,7923,7381
Pajarito Mountain Ski Area,35.89417,-106.39028,1440,1968,3686,3513,3698,4284,3718
Red River Ski Area,null,null,null,null,null,null,null,null,null
Sandia Peak Tramway,35.19056,-106.47944,null,18672,42873,41058,44572,48228,35920
Sipapu Ski & Summer Resort,36.154211,-105.548508,1055,1489,3140,3102,3103,3427,2790
Ski Apache,33.39722,-105.79917,1900,5099,11643,15234,20025,13881,7412
Ski Cloudcroft,32.9507083,-105.7072417,700,null,null,null,null,null,null
Ski Santa Fe,35.7963250,-105.8012806,1725,null,null,null,null,null,null
"Taos Ski Valley, New Mexico",36.59778,-105.44500,3281,17128,38044,32967,34511,39145,37879
Alta Ski Area,40.58083,-111.63722,2538,16583,34607,31580,32034,41914,35570
Beaver Mountain,41.968,-111.541,1600,2093,5083,8096,8538,9916,11413
Brian Head Ski Resort,37.683,-112.833,1320,6325,14010,13665,10836,11884,10412
Brighton Ski Resort,40.60000,-111.58333,1995,5843,13474,16878,17328,21310,18008
Cherry Peak Resort,41.92639,-111.75667,1275,null,null,4808,4819,5748,7334
Deer Valley,40.62278,-111.48944,3000,20282,42929,41500,45608,50066,46617
"Elk Mountain, Utah",38.32056,-112.39167,null,null,null,null,null,null,369
"Nordic Valley, Utah",41.300,-111.8583,null,1421,3048,3370,2968,2309,3000
Park City Mountain Resort,40.65083,-111.50750,3126,22167,45881,48581,47705,51623,43372
Powder Mountain,41.38000,-111.78028,2000,4111,11395,19151,17990,23170,18432
Snowbasin,41.216,-111.857,2959,7258,15803,18634,18668,19463,19258
"Snowbird, Utah",40.58111,-111.65639,3240,22123,44649,52694,48148,53046,41738
Solitude Mountain Resort,40.615139,-111.588917,2500,5085,13255,19828,25712,35361,23274
Sundance Resort,40.392,-111.579,2150,14964,34979,37627,37524,43690,53230
"Shell, Wyoming",44.53556,-107.77917,null,2392,5047,5606,5077,5107,6118
Beartooth Basin Summer Ski Area,null,null,null,null,null,113,1688,2529,2360
Grand Targhee Resort,43.789,-110.957,2454,7601,15435,18126,17725,16439,17220
Hogadon Ski Area,42.7449611,-106.3394278,630,1525,3213,2465,2624,3078,2345
Jackson Hole Mountain Resort,43.59,-110.89,4139,19422,43796,42433,39827,45102,41155
"Ten Sleep, Wyoming",44.03472,-107.44806,null,12642,21758,24191,24168,22356,26713
Pine Creek Ski Area,42.1031083,-110.8287889,1325,541,1242,1592,1475,1435,1316
"Cody, Wyoming",44.52333,-109.05722,null,64173,131447,128297,117917,129364,171337
Snow King Mountain,43.472,-110.761,1571,3620,7933,10351,10080,15244,9498
Snowy Range Ski Area,41.341231,-106.183441,1000,1225,2827,3480,3697,3629,3510
White Pine Ski Resort,42.9778389,-109.7581722,1050,1075,2282,2756,2450,2131,2370
Arctic Valley Ski Area,61.24667,-149.65056,1500,2181,4745,4913,3891,2897,1612
Alyeska Resort,60.96167,-149.08056,2500,9719,23947,24640,22536,23248,18081
Eaglecrest Ski Area,58.27611,-134.51528,1620,1371,2898,3552,3321,3105,4231
Hilltop Ski Area,61.14083,-149.74500,294,1738,3632,4385,4001,3397,3296
Majestic Heli Ski,null,null,null,null,null,null,null,null,null
Moose Mountain (Alaska),64.94056,-147.99056,null,1062,1842,1786,1583,1297,1386
Mount Eyak,60.55000,-145.75000,849,1060,2148,2314,2039,1962,1914
Skiland,65.04889,-147.40917,1027,969,2163,2367,2593,2764,2907
Alpine Meadows (ski resort),39.164,-120.239,1802,4823,11084,10164,9797,11302,10573
Alta Sierra Ski Resort,null,null,null,null,null,null,null,null,null
Badger Pass Ski Area,37.66194,-119.6636,800,6760,17460,13731,12769,16027,10262
Bear Mountain (ski area),34.2267,-116.8602,1665,14085,31303,28403,28389,36452,25690
Bear Valley (resort),38.492,-120.044,1900,6258,14403,12084,10802,12577,16181
Boreal Mountain Resort,39.3317,-120.3511,500,3495,7449,9433,8749,8868,7109
Buckhorn Ski Club,34.34457,-117.91437,700,961,2088,2191,1588,2153,1973
China Peak,37.2297,-119.1583,1679,3683,8280,8996,7986,7598,7286
Dodge Ridge Ski Area,38.1896,-119.9564,1600,3182,9072,10855,15946,17973,9340
Donner Ski Ranch,39.3183139,-120.3300194,750,2313,5394,6890,5364,5379,4654
Granlibakken,39.1556,-120.1551,null,1751,3661,3749,3505,3058,3188
Heavenly Mountain Resort,38.9353,-119.9400,3812,15354,34424,40695,40513,44631,35132
Homewood Mountain Resort,39.0827,-120.1755,503,2564,6684,6019,4579,6640,6061
June Mountain ski area,37.7683,-119.0906,2545,2117,4934,6068,6142,7597,8488
Kirkwood Mountain Resort,38.684,-120.068,2000,8266,16488,17045,15517,20070,17358
Mammoth Mountain Ski Area,37.63056,-119.03250,3100,25751,56112,65779,62641,63730,52366
Mount Baldy Ski Lifts,34.27,-117.62,2100,6016,14147,16638,12200,14970,10560
Mount Shasta Ski Park,null,null,null,4637,10075,9082,10394,13084,8342
Mount Waterman,34.349722,-117.928611,1030,2951,10319,7562,5796,10385,9496
Mountain High,34.37472,-117.69323,1600,7371,18249,18669,23374,21011,16025
Northstar California,39.264,-120.125,2280,6755,14245,14629,14683,17536,17472
Sierra-at-Tahoe,38.8002,-120.0806,2212,6218,16139,17615,28770,35608,19341
Snow Summit,34.2286,-116.8911,1209,6999,14792,14688,14692,16091,11888
Snow Valley Mountain Resort,34.223375,-117.037423,1041,3211,6944,7881,9171,12900,8823
Soda Springs Mountain Resort,null,null,null,null,null,null,null,null,null
Squaw Valley Ski Resort,39.196,-120.235,2850,42398,147814,159679,169879,141292,116804
Sugar Bowl Ski Resort,39.30444,-120.33583,1500,8145,17312,18658,17255,21610,16501
Tahoe Donner Downhill,39.3549,-120.2590,650,630,1362,1698,1704,1744,1606
Diamond Peak (ski area),39.254,-119.924,1840,2203,5452,5720,4762,5588,4935
Lee Canyon (Ski and Snowboard Resort),36.301638,-115.680759,2779,null,1427,6824,11592,12694,6702
Mount Rose Ski Tahoe,39.32917,-119.88583,1440,3745,8390,10112,9555,8111,5404
Sky Tavern Ski Area,null,null,null,null,null,null,null,null,null
Elko Snobowl Ski and Bike Park,null,null,null,null,null,null,null,null,null
Anthony Lakes (ski area),44.9637,-118.2348,900,1524,3410,3276,3502,3179,3770
Cooper Spur ski area,45.41228,-121.60501,350,1505,3284,3158,2512,2422,3308
Ferguson Ridge Ski Area,45.28209,-117.11285,640,517,1161,1380,1331,1429,1708
Hoodoo (ski area),44.409,-121.872,1035,2948,8148,8175,6902,6345,6586
Mount Ashland Ski Area,42.08333,-122.71667,1150,3135,5216,4989,4707,4133,4683
Mount Bachelor ski area,44.003,-121.677,3365,10694,18444,18571,21176,19509,17885
Mount Hood Meadows,45.32889,-121.66250,2777,5256,12932,15397,21843,26907,17376
Mount Hood Skibowl,45.30189,-121.773212,1527,2648,8707,12401,20855,21444,14370
Spout Springs Ski Area,45.7550,-118.0543,530,1238,2533,2898,2476,2533,3679
Summit Ski Area,45.303000,-121.7472000,null,1699,3291,2902,2836,3233,3479
Timberline Lodge ski area,45.33,-121.71,3690,7283,15356,14347,13815,14270,14745
Warner Canyon,42.23749,-120.29583,732,1073,1949,2462,1908,1987,2300
Willamette Pass Resort,43.60,-122.036,1563,1649,3805,3596,3615,4221,3954
49 Degrees North Ski Area,48.302,-117.612,1851,1525,3772,3874,3929,5065,6136
Badger Mountain Ski Area,47.61273,-120.12978,325,1277,1888,1556,1319,1336,1429
Crystal Mountain (Washington),46.93,-121.48,3100,11712,22867,23445,21195,20720,18631
Echo Valley Ski Area,47.93583,-120.05611,900,895,1610,1605,1441,1588,2098
Hurricane Ridge Ski and Snowboard Area,47.971,-123.493,700,1821,3180,2896,2643,3087,3143
Leavenworth Ski Hill,47.61427,-120.67027,null,1056,2140,3620,3826,3477,2788
Loup Loup Ski Bowl,48.39472,-119.91278,1240,1512,2423,2490,2264,2538,2754
Meany Lodge,47.28028,-121.32056,400,1101,2068,2461,2140,2076,3466
Mission Ridge Ski Area,47.292,-120.399,2250,2358,5044,4952,4405,4614,7181
Mt. Baker Ski Area,48.862,-121.654,1589,11961,20454,19306,24514,27250,21599
Mount Spokane Ski and Snowboard Park,47.922,-117.097,1489,1320,3295,2943,2976,3122,2962
Sahalie Ski Club,null,null,null,null,null,null,null,null,null
Sitzmark Lifts,null,null,null,null,null,null,null,null,null
Ski Bluewood,46.082,-117.851,1125,null,null,2272,2772,3008,2958
Stevens Pass Ski Area,47.74472,-121.08889,1784,4916,9767,10375,11784,11391,11689
The Summit at Snoqualmie,47.424,-121.416,2810,5629,11277,11423,13453,15679,16379
Alpental,47.44306,-121.42944,null,2794,6909,8219,8727,6836,5629
White Pass Ski Area,46.638,-121.391,2000,2368,5820,6948,8402,8263,7230
